{"type":"FeatureCollection","features":[{"type":"Feature","properties":{"address":"7007 Arapaho Rd","city":"Dallas","status":"Open","store_name":"Albertsons"},"geometry":{"type":"Point","coordinates":[-96.78811400000008,32.96298600000003]}},{"type":"Feature","properties":{"address":"10203 E Northwest Hwy","city":"Dallas","status":"Open","store_name":"Albertsons"},"geometry":{"type":"Point","coordinates":[-96.7096630000001,32.86502800000003]}},{"type":"Feature","properties":{"address":"3524 McKinney Ave","city":"Dallas","status":"Open","store_name":"Albertsons"},"geometry":{"type":"Point","coordinates":[-96.7971240000001,32.80557300000003]}},{"type":"Feature","properties":{"address":"6464 E Mockingbird Ln","city":"Dallas","status":"Open","store_name":"Albertsons"},"geometry":{"type":"Point","coordinates":[-96.75043100000009,32.83528600000003]}},{"type":"Feature","properties":{"address":"320 Casa Linda Plz","city":"Dallas","status":"Open","store_name":"Albertsons"},"geometry":{"type":"Point","coordinates":[-96.69965958437467,32.83400011010607]}},{"type":"Feature","properties":{"address":"4625-4727 Frankford Rd","city":"Dallas","status":"Open","store_name":"Albertsons"},"geometry":{"type":"Point","coordinates":[-96.82736339950934,32.99943384839869]}},{"type":"Feature","properties":{"address":"4349 W Northwest Hwy","city":"Dallas","status":"Open","store_name":"Albertsons"},"geometry":{"type":"Point","coordinates":[-96.83623918178709,32.865779748623716]}},{"type":"Feature","properties":{"address":"333 S Saint Augustine Rd","city":"Dallas","status":"Open","store_name":"Malone's Cost Plus"},"geometry":{"type":"Point","coordinates":[-96.65799303149659,32.70823860792928]}},{"type":"Feature","properties":{"address":"2223 Singleton Blvd","city":"Dallas","status":"Open","store_name":"Minyard Food Stores"},"geometry":{"type":"Point","coordinates":[-96.85805764837777,32.77977847028112]}},{"type":"Feature","properties":{"address":"3460 Webb Chapel Ext","city":"Dallas","status":"Open","store_name":"Fiesta Mart"},"geometry":{"type":"Point","coordinates":[-96.86364387613547,32.86419745192945]}},{"type":"Feature","properties":{"address":"6401 Abrams Rd","city":"Dallas","status":"Open","store_name":"Fiesta Mart"},"geometry":{"type":"Point","coordinates":[-96.74567819948844,32.862879827057625]}},{"type":"Feature","properties":{"address":"5750 E Lovers Ln","city":"Dallas","status":"Open","store_name":"Central Market"},"geometry":{"type":"Point","coordinates":[-96.76862923919896,32.84939181311596]}},{"type":"Feature","properties":{"address":"2951 S Buckner Blvd","city":"Dallas","status":"Open","store_name":"Fiesta Mart"},"geometry":{"type":"Point","coordinates":[-96.68423496960247,32.76167698618978]}},{"type":"Feature","properties":{"address":"5334 Ross Ave","city":"Dallas","status":"Open","store_name":"Fiesta Mart"},"geometry":{"type":"Point","coordinates":[-96.7708250000001,32.80902900000004]}},{"type":"Feature","properties":{"address":"611 W Jefferson Blvd","city":"Dallas","status":"Open","store_name":"Fiesta Mart"},"geometry":{"type":"Point","coordinates":[-96.83313127276354,32.74431959155347]}},{"type":"Feature","properties":{"address":"9727 Webb Chapel Rd","city":"Dallas","status":"Open","store_name":"Fiesta Mart"},"geometry":{"type":"Point","coordinates":[-96.86611819482518,32.86706051148572]}},{"type":"Feature","properties":{"address":"8060 Spring Valley Rd","city":"Dallas","status":"Open","store_name":"Fiesta Mart"},"geometry":{"type":"Point","coordinates":[-96.76713634290932,32.93887620181112]}},{"type":"Feature","properties":{"address":"18208-18410 Preston Rd","city":"Dallas","status":"Open","store_name":"Tom Thumb"},"geometry":{"type":"Point","coordinates":[-96.79355894500013,32.99985112680431]}},{"type":"Feature","properties":{"address":"5665 E Mockingbird Ln","city":"Dallas","status":"Open","store_name":"Kroger"},"geometry":{"type":"Point","coordinates":[-96.77094990882688,32.83841600390982]}},{"type":"Feature","properties":{"address":"3939 Frankford Rd","city":"Dallas","status":"Open","store_name":"Kroger"},"geometry":{"type":"Point","coordinates":[-96.84614502062578,32.99853443109615]}},{"type":"Feature","properties":{"address":"10675-10677 E Northwest Hwy","city":"Dallas","status":"Open","store_name":"Kroger"},"geometry":{"type":"Point","coordinates":[-96.70145600000008,32.865555000000036]}},{"type":"Feature","properties":{"address":"17194 NE Preston Rd","city":"Dallas","status":"Open","store_name":"Kroger"},"geometry":{"type":"Point","coordinates":[-96.80129413144549,32.98458861432893]}},{"type":"Feature","properties":{"address":"752 Wynnewood Village Shp Ctr","city":"Dallas","status":"Open","store_name":"Kroger"},"geometry":{"type":"Point","coordinates":[-96.83276228650868,32.725806185507324]}},{"type":"Feature","properties":{"address":"1515 S Buckner Blvd","city":"Dallas","status":"Open","store_name":"El Rancho"},"geometry":{"type":"Point","coordinates":[-96.68405216715455,32.738252406141164]}},{"type":"Feature","properties":{"address":"7007 Lake June Rd","city":"Dallas","status":"Open","store_name":"Malone's Cost Plus"},"geometry":{"type":"Point","coordinates":[-96.70170500156632,32.734930188475715]}},{"type":"Feature","properties":{"address":"4800 Columbia Ave","city":"Dallas","status":"Open","store_name":"Malone's Cost Plus"},"geometry":{"type":"Point","coordinates":[-96.76342857297732,32.79391324270426]}},{"type":"Feature","properties":{"address":"2550 Gus Thomasson Rd","city":"Dallas","status":"Open","store_name":"El Rancho"},"geometry":{"type":"Point","coordinates":[-96.67245561568673,32.833763776839966]}},{"type":"Feature","properties":{"address":"2215 S Marsalis Ave","city":"Dallas","status":"Open","store_name":"Food Rite"},"geometry":{"type":"Point","coordinates":[-96.81539221705077,32.72111448382451]}},{"type":"Feature","properties":{"address":"1201 W Camp Wisdom","city":"Dallas","status":"Open","store_name":"Minyard Food Stores"},"geometry":{"type":"Point","coordinates":[-96.8430653395615,32.66285699616796]}},{"type":"Feature","properties":{"address":"3230 MLK Blvd","city":"Dallas","status":"Open","store_name":"Minyard Food Stores"},"geometry":{"type":"Point","coordinates":[-96.76221164979427,32.772964814119014]}},{"type":"Feature","properties":{"address":"2130 E Ledbetter Dr","city":"Dallas","status":"Open","store_name":"Minyard Food Stores"},"geometry":{"type":"Point","coordinates":[-96.78818679855323,32.685579775497004]}},{"type":"Feature","properties":{"address":"10121 E Lake June Rd","city":"Dallas","status":"Open","store_name":"Minyard Food Stores"},"geometry":{"type":"Point","coordinates":[-96.65009300000008,32.73433700000003]}},{"type":"Feature","properties":{"address":"8040 Ferguson Rd","city":"Dallas","status":"Open","store_name":"Minyard Food Stores"},"geometry":{"type":"Point","coordinates":[-96.71220469840397,32.80172381023563]}},{"type":"Feature","properties":{"address":"14999 Preston Rd","city":"Dallas","status":"Open","store_name":"Tom Thumb"},"geometry":{"type":"Point","coordinates":[-96.80593681595224,32.951514365143844]}},{"type":"Feature","properties":{"address":"2603-2729 S Lancaster Rd","city":"Dallas","status":"Open","store_name":"Save-A-Lot"},"geometry":{"type":"Point","coordinates":[-96.80512398801437,32.71654344181993]}},{"type":"Feature","properties":{"address":"1150 W Kiest Blvd Suite 210","city":"Dallas","status":"Open","store_name":"Save-A-Lot"},"geometry":{"type":"Point","coordinates":[-96.84093023797692,32.704677838808756]}},{"type":"Feature","properties":{"address":"6419 Skillman St","city":"Dallas","status":"Open","store_name":"SuperTarget"},"geometry":{"type":"Point","coordinates":[-96.74604209023391,32.865839932856844]}},{"type":"Feature","properties":{"address":"16731 Coit Rd","city":"Dallas","status":"Open","store_name":"SuperTarget"},"geometry":{"type":"Point","coordinates":[-96.77009390937334,32.982723868151346]}},{"type":"Feature","properties":{"address":"3025 Webb Chapel Ext","city":"Dallas","status":"Open","store_name":"Terry's Supermarket"},"geometry":{"type":"Point","coordinates":[-96.8688402615745,32.8586683929321]}},{"type":"Feature","properties":{"address":"4444 W Illinois Ave","city":"Dallas","status":"Open","store_name":"Terry's Supermarket"},"geometry":{"type":"Point","coordinates":[-96.89391778706096,32.71950756415901]}},{"type":"Feature","properties":{"address":"8602-8698 Skillman St","city":"Dallas","status":"Open","store_name":"Tom Thumb"},"geometry":{"type":"Point","coordinates":[-96.72064305363197,32.8971118979241]}},{"type":"Feature","properties":{"address":"11920 Preston Rd","city":"Dallas","status":"Open","store_name":"Tom Thumb"},"geometry":{"type":"Point","coordinates":[-96.80195200000009,32.91108700000004]}},{"type":"Feature","properties":{"address":"6319-6333 E Mockingbird Ln","city":"Dallas","status":"Open","store_name":"Tom Thumb"},"geometry":{"type":"Point","coordinates":[-96.75443167345729,32.83777752750768]}},{"type":"Feature","properties":{"address":"10455 N Central Expy","city":"Dallas","status":"Open","store_name":"Tom Thumb"},"geometry":{"type":"Point","coordinates":[-96.7703090000001,32.88859600000003]}},{"type":"Feature","properties":{"address":"315 S Hampton Rd","city":"Dallas","status":"Open","store_name":"Tom Thumb"},"geometry":{"type":"Point","coordinates":[-96.85838065254055,32.74244464051001]}},{"type":"Feature","properties":{"address":"2305 N Central Expy","city":"Dallas","status":"Open","store_name":"Walmart Market"},"geometry":{"type":"Point","coordinates":[-96.79371000000009,32.80061200000004]}},{"type":"Feature","properties":{"address":"12789 Midway Rd","city":"Dallas","status":"Closing","store_name":"Walmart Market"},"geometry":{"type":"Point","coordinates":[-96.839192189219,32.92222879140017]}},{"type":"Feature","properties":{"address":"2275 Gus Thomasson Rd","city":"Dallas","status":"Open","store_name":"Walmart Market"},"geometry":{"type":"Point","coordinates":[-96.67633079839159,32.83596672900148]}},{"type":"Feature","properties":{"address":"7401 Samuell Blvd","city":"Dallas","status":"Open","store_name":"Walmart Supercenter"},"geometry":{"type":"Point","coordinates":[-96.68914815834833,32.793719329327445]}},{"type":"Feature","properties":{"address":"15220 Montfort Drive","city":"Dallas","status":"Open","store_name":"Walmart Supercenter"},"geometry":{"type":"Point","coordinates":[-96.8184990000001,32.95612300000003]}},{"type":"Feature","properties":{"address":"1521 North Cockrell Hill Road","city":"Dallas","status":"Open","store_name":"Walmart Supercenter"},"geometry":{"type":"Point","coordinates":[-96.89730411343267,32.7625372138651]}},{"type":"Feature","properties":{"address":"3155 W. Wheatland Road","city":"Dallas","status":"Open","store_name":"Walmart Supercenter"},"geometry":{"type":"Point","coordinates":[-96.87255539152822,32.64956123323345]}},{"type":"Feature","properties":{"address":"11700 Preston Ln","city":"Dallas","status":"Open","store_name":"Whole Foods Market"},"geometry":{"type":"Point","coordinates":[-96.80310699785096,32.907364765847724]}},{"type":"Feature","properties":{"address":"5555 S Buckner Blvd","city":"Dallas","status":"Open","store_name":"Sam's Club"},"geometry":{"type":"Point","coordinates":[-96.68710507071255,32.79388280358356]}},{"type":"Feature","properties":{"address":"2900 Wheatland Rd","city":"Dallas","status":"Open","store_name":"Sam's Club"},"geometry":{"type":"Point","coordinates":[-96.86650342583549,32.64548204067081]}},{"type":"Feature","properties":{"address":"12000 Mccree Rd","city":"Dallas","status":"Open","store_name":"Sam's Club"},"geometry":{"type":"Point","coordinates":[-96.67245887835998,32.868743796574584]}},{"type":"Feature","properties":{"address":"2417 N Haskell Rd","city":"Dallas","status":"Open","store_name":"Target"},"geometry":{"type":"Point","coordinates":[-96.7917497455515,32.80481326555481]}},{"type":"Feature","properties":{"address":"212 Medallion Shopping Center","city":"Dallas","status":"Open","store_name":"Target"},"geometry":{"type":"Point","coordinates":[-96.75290374083254,32.856913203400886]}},{"type":"Feature","properties":{"address":"9440 Marsh Lane","city":"Dallas","status":"Open","store_name":"Target"},"geometry":{"type":"Point","coordinates":[-96.85382738431643,32.862350710435614]}},{"type":"Feature","properties":{"address":"39739 LBJ Fwy","city":"Dallas","status":"Open","store_name":"Target"},"geometry":{"type":"Point","coordinates":[-96.86235277594163,32.650138425194385]}},{"type":"Feature","properties":{"address":"3630 Forest Lane","city":"Dallas","status":"Open","store_name":"Albertsons"},"geometry":{"type":"Point","coordinates":[-96.85728513420054,32.90851037511565]}},{"type":"Feature","properties":{"address":"3434 W Illinois Ave","city":"Dallas","status":"Open","store_name":"Fiesta Mart"},"geometry":{"type":"Point","coordinates":[-96.87713765261095,32.71888379600841]}},{"type":"Feature","properties":{"address":"11445 Garland Rd","city":"Dallas","status":"Open","store_name":"Fiesta Mart"},"geometry":{"type":"Point","coordinates":[-96.682017923454,32.85149931291193]}},{"type":"Feature","properties":{"address":"2225 W Ledbetter Dr","city":"Dallas","status":"Open","store_name":"Fiesta Mart"},"geometry":{"type":"Point","coordinates":[-96.85565100000008,32.69263800000003]}},{"type":"Feature","properties":{"address":"9140 Forest Ln","city":"Dallas","status":"Open","store_name":"Kroger"},"geometry":{"type":"Point","coordinates":[-96.74493533064982,32.908143872307186]}},{"type":"Feature","properties":{"address":"5809 E Lovers Ln","city":"Dallas","status":"Open","store_name":"Tom Thumb"},"geometry":{"type":"Point","coordinates":[-96.76706762953341,32.852286973747084]}},{"type":"Feature","properties":{"address":"5959 Royal Ln","city":"Dallas","status":"Open","store_name":"Tom Thumb"},"geometry":{"type":"Point","coordinates":[-96.80491458446564,32.89635850195652]}},{"type":"Feature","properties":{"address":"3757 Forest Ln","city":"Dallas","status":"Open","store_name":"Tom Thumb"},"geometry":{"type":"Point","coordinates":[-96.8529971842759,32.91080389741462]}},{"type":"Feature","properties":{"address":"7700 W Northwest","city":"Dallas","status":"Open","store_name":"Tom Thumb"},"geometry":{"type":"Point","coordinates":[-96.774883112987,32.86415560592347]}},{"type":"Feature","properties":{"address":"3030 S Lancater Rd","city":"Dallas","status":"Open","store_name":"Fiesta Mart"},"geometry":{"type":"Point","coordinates":[-96.80297644148631,32.71076585963932]}},{"type":"Feature","properties":{"address":"323 Golden Triangle","city":"Dallas","status":"Open","store_name":"Malone's Cost Plus"},"geometry":{"type":"Point","coordinates":[-96.84137620669725,32.69548421881072]}},{"type":"Feature","properties":{"address":"2240 Royal Ln.","city":"Dallas","status":"Open","store_name":"Ko'mart"},"geometry":{"type":"Point","coordinates":[-96.9031414965681,32.8944163842929]}},{"type":"Feature","properties":{"address":"9780 Walnut St.","city":"Dallas","status":"Open","store_name":"Hong Kong Market Place"},"geometry":{"type":"Point","coordinates":[-96.71930261325502,32.92250382067644]}},{"type":"Feature","properties":{"address":"3021 MLK Blvd.","city":"Dallas","status":"Open","store_name":"Save-A-Lot"},"geometry":{"type":"Point","coordinates":[-96.76564252549181,32.77218236233748]}},{"type":"Feature","properties":{"address":"4142 Cedar Springs Rd","city":"Dallas","status":"Open","store_name":"Kroger"},"geometry":{"type":"Point","coordinates":[-96.81165324444807,32.81279688908625]}},{"type":"Feature","properties":{"address":"7117 Inwood","city":"Dallas","status":"Open","store_name":"Tom Thumb"},"geometry":{"type":"Point","coordinates":[-96.8226150345509,32.84452441969586]}},{"type":"Feature","properties":{"address":"655 W Illinois Ave.","city":"Dallas","status":"Open","store_name":"El Rancho"},"geometry":{"type":"Point","coordinates":[-96.8350252147939,32.72166223854177]}},{"type":"Feature","properties":{"address":"14211 Coit Rd.","city":"Dallas","status":"Open","store_name":"El Rancho"},"geometry":{"type":"Point","coordinates":[-96.77106622748984,32.94216830505166]}},{"type":"Feature","properties":{"address":"9301 Forest Ln","city":"Dallas","status":"Open","store_name":"Walmart Supercenter"},"geometry":{"type":"Point","coordinates":[-96.73888493265895,32.91086832738034]}},{"type":"Feature","properties":{"address":"1800 N Henderson Ave.","city":"Dallas","status":"Open","store_name":"Sprouts Farmers Market"},"geometry":{"type":"Point","coordinates":[-96.77288040177108,32.811026845478736]}},{"type":"Feature","properties":{"address":"11722 Marsh Ln. Ste 317","city":"Dallas","status":"Open","store_name":"Sprouts Farmers Market"},"geometry":{"type":"Point","coordinates":[-96.8537483795046,32.908374574920295]}},{"type":"Feature","properties":{"address":"6185 Retail Dr","city":"Dallas","status":"Open","store_name":"Walmart Supercenter"},"geometry":{"type":"Point","coordinates":[-96.75241924428089,32.862499888455396]}},{"type":"Feature","properties":{"address":"6185 Retail Rd","city":"Dallas","status":"Open","store_name":"Sam's Club"},"geometry":{"type":"Point","coordinates":[-96.75418128837866,32.8618710517292]}},{"type":"Feature","properties":{"address":"8190 Park Ln","city":"Dallas","status":"Open","store_name":"Whole Foods Market"},"geometry":{"type":"Point","coordinates":[-96.76818349554914,32.86887676223076]}},{"type":"Feature","properties":{"address":"1310 S Buckner Blvd","city":"Dallas","status":"Open","store_name":"Elrods Cost Plus"},"geometry":{"type":"Point","coordinates":[-96.6814914576978,32.734885152782624]}},{"type":"Feature","properties":{"address":"2025 Fort Worth Ave","city":"Dallas","status":"Open","store_name":"Elrods Cost Plus"},"geometry":{"type":"Point","coordinates":[-96.8552913764405,32.76356750960394]}},{"type":"Feature","properties":{"address":"13131 Montfort Dr.","city":"Dallas","status":"Open","store_name":"Target"},"geometry":{"type":"Point","coordinates":[-96.81348144443228,32.92809475542038]}},{"type":"Feature","properties":{"address":"18121 Marsh Ln","city":"Dallas","status":"Open","store_name":"Walmart Supercenter"},"geometry":{"type":"Point","coordinates":[-96.85781760760847,32.99512230569841]}},{"type":"Feature","properties":{"address":"2118 Abrams Rd.","city":"Dallas","status":"Open","store_name":"Whole Foods Market"},"geometry":{"type":"Point","coordinates":[-96.75227294544436,32.81582210567992]}},{"type":"Feature","properties":{"address":"2314 W Illinois Ave","city":"Dallas","status":"Open","store_name":"Jerry's Supermarket"},"geometry":{"type":"Point","coordinates":[-96.8562568284647,32.71927591856943]}},{"type":"Feature","properties":{"address":"532 W Jefferson Blvd","city":"Dallas","status":"Open","store_name":"Jerry's Supermarket"},"geometry":{"type":"Point","coordinates":[-96.83169299967825,32.742884559530445]}},{"type":"Feature","properties":{"address":"1719 Singleton Blvd","city":"Dallas","status":"Open","store_name":"Jerry's Supermarket"},"geometry":{"type":"Point","coordinates":[-96.84691360312243,32.778761264972474]}},{"type":"Feature","properties":{"address":"2926 S. Buckner Blvd.","city":"Dallas","status":"Open","store_name":"Aldi"},"geometry":{"type":"Point","coordinates":[-96.68179886658375,32.761915323386475]}},{"type":"Feature","properties":{"address":"8034 Chrysalis Dr.","city":"Dallas","status":"Open","store_name":"Aldi"},"geometry":{"type":"Point","coordinates":[-96.8586563001484,32.64923250326638]}},{"type":"Feature","properties":{"address":"9772 Forest Ln.","city":"Dallas","status":"Open","store_name":"Aldi"},"geometry":{"type":"Point","coordinates":[-96.71898569743162,32.91078492380108]}},{"type":"Feature","properties":{"address":"4120 Gaston Ave.","city":"Dallas","status":"Open","store_name":"Aldi"},"geometry":{"type":"Point","coordinates":[-96.7754144258531,32.794360392855744]}},{"type":"Feature","properties":{"address":"2440 W. Illinois Ave.","city":"Dallas","status":"Open","store_name":"Aldi"},"geometry":{"type":"Point","coordinates":[-96.85812592058342,32.71906760102385]}},{"type":"Feature","properties":{"address":"13548 Preston Rd.","city":"Dallas","status":"Open","store_name":"Aldi"},"geometry":{"type":"Point","coordinates":[-96.80257569193637,32.93242742472641]}},{"type":"Feature","properties":{"address":"3632 Frankford Rd.","city":"Dallas","status":"Open","store_name":"Aldi"},"geometry":{"type":"Point","coordinates":[-96.85428479588583,32.99566045347574]}},{"type":"Feature","properties":{"address":"5828 Abrams Rd.","city":"Dallas","status":"Open","store_name":"Aldi"},"geometry":{"type":"Point","coordinates":[-96.7497468365253,32.85580219840141]}},{"type":"Feature","properties":{"address":"10325 Lake June Rd.","city":"Dallas","status":"Open","store_name":"El Rio Grande"},"geometry":{"type":"Point","coordinates":[-96.64675261117264,32.735339702657924]}},{"type":"Feature","properties":{"address":"2627 W Jefferson Blvd","city":"Dallas","status":"Open","store_name":"Save-A-Lot"},"geometry":{"type":"Point","coordinates":[-96.86130579003186,32.74916573479439]}},{"type":"Feature","properties":{"address":"2505 Fort Worth Ave","city":"Dallas","status":"Open","store_name":"Aldi"},"geometry":{"type":"Point","coordinates":[-96.86343892651789,32.759230974495175]}},{"type":"Feature","properties":{"address":"4901 Maple Ave","city":"Dallas","status":"Open","store_name":"Kroger"},"geometry":{"type":"Point","coordinates":[-96.82882964114232,32.81447129550655]}},{"type":"Feature","properties":{"address":"4241 Capitol Ave","city":"Dallas","status":"Open","store_name":"Kroger"},"geometry":{"type":"Point","coordinates":[-96.78974730766477,32.80656693016888]}},{"type":"Feature","properties":{"address":"13739 N Central Expy","city":"Dallas","status":"Open","store_name":"Walmart Supercenter"},"geometry":{"type":"Point","coordinates":[-96.75274421235254,32.93684661658205]}},{"type":"Feature","properties":{"address":"5308 Maple Ave.","city":"Dallas","status":"Open","store_name":"El Rio Grande"},"geometry":{"type":"Point","coordinates":[-96.83156400219563,32.81780879562086]}},{"type":"Feature","properties":{"address":"2515 W Jefferson Blvd","city":"Dallas","status":"Open","store_name":"El Rio Grande"},"geometry":{"type":"Point","coordinates":[-96.85923145448196,32.74888870239943]}},{"type":"Feature","properties":{"address":"Ledbetter at I-35","city":"Dallas","status":"Open","store_name":"Walmart Supercenter"},"geometry":{"type":"Point","coordinates":[-96.82479585139401,32.6851138866948]}},{"type":"Feature","properties":{"address":"9461 Webb Chapel Rd","city":"Dallas","status":"Open","store_name":"Sam's Club"},"geometry":{"type":"Point","coordinates":[-96.86124610368017,32.862823287819324]}},{"type":"Feature","properties":{"address":"2827 S Buckner Blvd","city":"Dallas","status":"Open","store_name":"Walmart Market"},"geometry":{"type":"Point","coordinates":[-96.68322784024033,32.759754932177984]}},{"type":"Feature","properties":{"address":"10720 Preston Rd","city":"Dallas","status":"Open","store_name":"Central Market"},"geometry":{"type":"Point","coordinates":[-96.80207444653703,32.8942874792696]}},{"type":"Feature","properties":{"address":"10020 Marsh Ln","city":"Dallas","status":"Open","store_name":"El Rancho"},"geometry":{"type":"Point","coordinates":[-96.85479753452695,32.88161608375226]}},{"type":"Feature","properties":{"address":"9410 Webb Chapel","city":"Dallas","status":"Open","store_name":"Walmart"},"geometry":{"type":"Point","coordinates":[-96.85663515182246,32.86222200884334]}},{"type":"Feature","properties":{"address":"3128 Forest Lane #245","city":"Dallas","status":"Open","store_name":"Aldi"},"geometry":{"type":"Point","coordinates":[-96.87086946960831,32.90848589182116]}},{"type":"Feature","properties":{"address":"2001 Greenville Ave","city":"Dallas","status":"Open","store_name":"Trader Joe's"},"geometry":{"type":"Point","coordinates":[-96.77053981922701,32.81492734160834]}},{"type":"Feature","properties":{"address":"2218 Greenville Ave","city":"Dallas","status":"Open","store_name":"Walmart Market"},"geometry":{"type":"Point","coordinates":[-96.7694552240429,32.81653053901032]}},{"type":"Feature","properties":{"address":"10909 Webb Chapel Rd","city":"Dallas","status":"Open","store_name":"Super Plaza"},"geometry":{"type":"Point","coordinates":[-96.87189641766072,32.89676313235082]}},{"type":"Feature","properties":{"address":"6015 Lindsley Rd","city":"Dallas","status":"Open","store_name":"El Mercado Azteca"},"geometry":{"type":"Point","coordinates":[-96.74740015476743,32.80024907464616]}},{"type":"Feature","properties":{"address":"Walnut Hill at Central","city":"Dallas","status":"Opening","store_name":"Trader Joe's"},"geometry":{"type":"Point","coordinates":[-96.77202738194181,32.880999436485745]}},{"type":"Feature","properties":{"address":"3322 N Buckner Blvd","city":"Dallas","status":"Open","store_name":"Save-A-Lot"},"geometry":{"type":"Point","coordinates":[-96.68046431037048,32.80531037096127]}},{"type":"Feature","properties":{"address":"2233 N Prairie Creek Rd","city":"Dallas","status":"Open","store_name":"Save-A-Lot"},"geometry":{"type":"Point","coordinates":[-96.66625914341584,32.750538099582286]}},{"type":"Feature","properties":{"address":"4639 Singleton Blvd","city":"Dallas","status":"Open","store_name":"Foodland Market"},"geometry":{"type":"Point","coordinates":[-96.89682855227169,32.778894559361035]}},{"type":"Feature","properties":{"address":"7932 Great Trinity Forest Way","city":"Dallas","status":"Open","store_name":"Hunt's Food Store"},"geometry":{"type":"Point","coordinates":[-96.68537678355744,32.711478407444595]}},{"type":"Feature","properties":{"address":"McKinney Ave at Routh St","city":"Dallas","status":"Opening","store_name":"Whole Foods Market"},"geometry":{"type":"Point","coordinates":[-96.80160989441727,32.7955421586614]}},{"type":"Feature","properties":{"address":"7001 W Wheatland Rd","city":"Dallas","status":"Opening","store_name":"Walmart Supercenter"},"geometry":{"type":"Point","coordinates":[-96.94425179442763,32.648540537432524]}},{"type":"Feature","properties":{"address":"4121 Gaston Ave","city":"Dallas","status":"Open","store_name":"El Rancho"},"geometry":{"type":"Point","coordinates":[-96.77696465962389,32.79523541305664]}},{"type":"Feature","properties":{"address":"Cole at Knox","city":"Dallas","status":"Opening","store_name":"Trader Joe's"},"geometry":{"type":"Point","coordinates":[-96.78973066887855,32.82265960694711]}},{"type":"Feature","properties":{"address":"W. Lovers Ln.","city":"Dallas","status":"Opening","store_name":"Trader Joe's"},"geometry":{"type":"Point","coordinates":[-96.81829405977398,32.85054278260308]}},{"type":"Feature","properties":{"address":"Coit at Arapaho","city":"Dallas","status":"Opening","store_name":"Walmart Supercenter"},"geometry":{"type":"Point","coordinates":[-96.77033854537072,32.96138728400438]}},{"type":"Feature","properties":{"address":"9440 Garland Rd","city":"Dallas","status":"Open","store_name":"Natural Grocers"},"geometry":{"type":"Point","coordinates":[-96.70216226253544,32.83242635867219]}},{"type":"Feature","properties":{"address":"11661 Preston Rd","city":"Dallas","status":"Open","store_name":"Natural Grocers"},"geometry":{"type":"Point","coordinates":[-96.80549139601939,32.90839923670649]}},{"type":"Feature","properties":{"address":"7517 Campbell Rd","city":"Dallas","status":"Open","store_name":"Natural Grocers"},"geometry":{"type":"Point","coordinates":[-96.771160915187,32.979735162805405]}},{"type":"Feature","properties":{"address":"3888 Oak Lawn Ave","city":"Dallas","status":"Opening","store_name":"Fresh Market"},"geometry":{"type":"Point","coordinates":[-96.80058698282917,32.81595498747488]}},{"type":"Feature","properties":{"address":"Midway at LBJ","city":"Dallas","status":"Opening","store_name":"Walmart Supercenter"},"geometry":{"type":"Point","coordinates":[-96.84020499153215,32.92307166488781]}},{"type":"Feature","properties":{"address":"Midway at LBJ","city":"Dallas","status":"Opening","store_name":"Sam's Club"},"geometry":{"type":"Point","coordinates":[-96.84142145029008,32.92244983624195]}},{"type":"Feature","properties":{"address":"Gaston at Garland","city":"Dallas","status":"Opening","store_name":"Fresh Market"},"geometry":{"type":"Point","coordinates":[-96.7299754928896,32.81286308998786]}},{"type":"Feature","properties":{"address":"1500 Jackson St","city":"Dallas","status":"Open","store_name":"Urban Orchard"},"geometry":{"type":"Point","coordinates":[-96.79806219776869,32.77906160726827]}}]}